{
"type": "FeatureCollection",
"name": "VZ_Intersections_json",
"crs": { "type": "name", "properties": { "name": "urn:ogc:def:crs:OGC:1.3:CRS84" } },
"features": [
{ "type": "Feature", "properties": { "lat": 40.7429100198, "long": -73.992803409499999, "street_1": "W 23 ST", "street_2": "AV OF THE AMERICAS", "x": 40.7429100198, "y": -73.992803409499999 }, "geometry": { "type": "Point", "coordinates": [ -73.992803409499999, 40.7429100198 ] } },
{ "type": "Feature", "properties": { "lat": 40.731350134800003, "long": -73.982556292999988, "street_1": "E 14 ST", "street_2": "1 AV", "x": 40.731350134800003, "y": -73.982556292999988 }, "geometry": { "type": "Point", "coordinates": [ -73.982556292999988, 40.731350134800003 ] } },
{ "type": "Feature", "properties": { "lat": 40.757934524100001, "long": -73.9855687437, "street_1": "W 45 ST", "street_2": "7 AV", "x": 40.757934524100001, "y": -73.9855687437 }, "geometry": { "type": "Point", "coordinates": [ -73.9855687437, 40.757934524100001 ] } },
{ "type": "Feature", "properties": { "lat": 40.718795529399998, "long": -73.989011183599999, "street_1": "LUDLOW ST", "street_2": "DELANCEY ST", "x": 40.718795529399998, "y": -73.989011183599999 }, "geometry": { "type": "Point", "coordinates": [ -73.989011183599999, 40.718795529399998 ] } },
{ "type": "Feature", "properties": { "lat": 40.7559504046, "long": -73.990726363600004, "street_1": "W 40 ST", "street_2": "8 AV", "x": 40.7559504046, "y": -73.990726363600004 }, "geometry": { "type": "Point", "coordinates": [ -73.990726363600004, 40.7559504046 ] } },
{ "type": "Feature", "properties": { "lat": 40.8252328592, "long": -73.947605001900001, "street_1": "W 145 ST", "street_2": "AMSTERDAM AV", "x": 40.8252328592, "y": -73.947605001900001 }, "geometry": { "type": "Point", "coordinates": [ -73.947605001900001, 40.8252328592 ] } },
{ "type": "Feature", "properties": { "lat": 40.744802682100001, "long": -73.991418585299996, "street_1": "W 26 ST", "street_2": "AV OF THE AMERICAS", "x": 40.744802682100001, "y": -73.991418585299996 }, "geometry": { "type": "Point", "coordinates": [ -73.991418585299996, 40.744802682100001 ] } },
{ "type": "Feature", "properties": { "lat": 40.761660122099997, "long": -73.9865613849, "street_1": "W 49 ST", "street_2": "8 AV", "x": 40.761660122099997, "y": -73.9865613849 }, "geometry": { "type": "Point", "coordinates": [ -73.9865613849, 40.761660122099997 ] } },
{ "type": "Feature", "properties": { "lat": 40.710093041599997, "long": -73.989789707, "street_1": "SOUTH ST", "street_2": "RUTGERS SLIP", "x": 40.710093041599997, "y": -73.989789707 }, "geometry": { "type": "Point", "coordinates": [ -73.989789707, 40.710093041599997 ] } },
{ "type": "Feature", "properties": { "lat": 40.7373608885, "long": -73.996839939500006, "street_1": "W 14 ST", "street_2": "AV OF THE AMERICAS", "x": 40.7373608885, "y": -73.996839939500006 }, "geometry": { "type": "Point", "coordinates": [ -73.996839939500006, 40.7373608885 ] } },
{ "type": "Feature", "properties": { "lat": 40.733292147199997, "long": -73.987180496199997, "street_1": "E 14 ST", "street_2": "3 AV", "x": 40.733292147199997, "y": -73.987180496199997 }, "geometry": { "type": "Point", "coordinates": [ -73.987180496199997, 40.733292147199997 ] } },
{ "type": "Feature", "properties": { "lat": 40.728604493399999, "long": -74.005313692800001, "street_1": "W HOUSTON ST", "street_2": "VARICK ST", "x": 40.728604493399999, "y": -74.005313692800001 }, "geometry": { "type": "Point", "coordinates": [ -74.005313692800001, 40.728604493399999 ] } },
{ "type": "Feature", "properties": { "lat": 40.810172893800001, "long": -73.951165486500003, "street_1": "W 125 ST", "street_2": "FREDERICK DOUGLASS BLVD", "x": 40.810172893800001, "y": -73.951165486500003 }, "geometry": { "type": "Point", "coordinates": [ -73.951165486500003, 40.810172893800001 ] } },
{ "type": "Feature", "properties": { "lat": 40.804374679, "long": -73.937418529, "street_1": "LEXINGTON AV", "street_2": "E 125 ST", "x": 40.804374679, "y": -73.937418529 }, "geometry": { "type": "Point", "coordinates": [ -73.937418529, 40.804374679 ] } },
{ "type": "Feature", "properties": { "lat": 40.7447792245, "long": -73.975881177700003, "street_1": "E 34 ST", "street_2": "2 AV", "x": 40.7447792245, "y": -73.975881177700003 }, "geometry": { "type": "Point", "coordinates": [ -73.975881177700003, 40.7447792245 ] } },
{ "type": "Feature", "properties": { "lat": 40.759626856399997, "long": -73.995474502500002, "street_1": "W 42 ST", "street_2": "10 AV", "x": 40.759626856399997, "y": -73.995474502500002 }, "geometry": { "type": "Point", "coordinates": [ -73.995474502500002, 40.759626856399997 ] } },
{ "type": "Feature", "properties": { "lat": 40.769115817200003, "long": -73.988558986300006, "street_1": "W 57 ST", "street_2": "10 AV", "x": 40.769115817200003, "y": -73.988558986300006 }, "geometry": { "type": "Point", "coordinates": [ -73.988558986300006, 40.769115817200003 ] } },
{ "type": "Feature", "properties": { "lat": 40.738552248799998, "long": -73.999683922000003, "street_1": "W 14 ST", "street_2": "7 AV", "x": 40.738552248799998, "y": -73.999683922000003 }, "geometry": { "type": "Point", "coordinates": [ -73.999683922, 40.738552248799998 ] } },
{ "type": "Feature", "properties": { "lat": 40.770313391599998, "long": -73.9914005041, "street_1": "W 57 ST", "street_2": "11 AV", "x": 40.770313391599998, "y": -73.9914005041 }, "geometry": { "type": "Point", "coordinates": [ -73.9914005041, 40.770313391599998 ] } },
{ "type": "Feature", "properties": { "lat": 40.755808029800001, "long": -73.986404367199995, "street_1": "W 42 ST", "street_2": "BROADWAY", "x": 40.755808029800001, "y": -73.986404367199995 }, "geometry": { "type": "Point", "coordinates": [ -73.986404367199995, 40.755808029800001 ] } },
{ "type": "Feature", "properties": { "lat": 40.73951036, "long": -73.984742310200005, "street_1": "LEXINGTON AV", "street_2": "E 23 ST", "x": 40.73951036, "y": -73.984742310200005 }, "geometry": { "type": "Point", "coordinates": [ -73.984742310200005, 40.73951036 ] } },
{ "type": "Feature", "properties": { "lat": 40.748438842200002, "long": -73.984560771100007, "street_1": "W 34 ST", "street_2": "5 AV", "x": 40.748438842200002, "y": -73.984560771100007 }, "geometry": { "type": "Point", "coordinates": [ -73.984560771100007, 40.748438842200002 ] } },
{ "type": "Feature", "properties": { "lat": 40.7567651942, "long": -73.967152544100003, "street_1": "E 53 ST", "street_2": "2 AV", "x": 40.7567651942, "y": -73.967152544100003 }, "geometry": { "type": "Point", "coordinates": [ -73.967152544100003, 40.7567651942 ] } },
{ "type": "Feature", "properties": { "lat": 40.718430238400011, "long": -74.000531955699998, "street_1": "LAFAYETTE ST", "street_2": "CANAL ST", "x": 40.718430238400011, "y": -74.000531955699998 }, "geometry": { "type": "Point", "coordinates": [ -74.000531955699998, 40.718430238400011 ] } },
{ "type": "Feature", "properties": { "lat": 40.754584933300002, "long": -73.999142921499995, "street_1": "W 34 ST", "street_2": "10 AV", "x": 40.754584933300002, "y": -73.999142921499995 }, "geometry": { "type": "Point", "coordinates": [ -73.999142921499995, 40.754584933300002 ] } },
{ "type": "Feature", "properties": { "lat": 40.721472870299998, "long": -73.983823872299993, "street_1": "E HOUSTON ST", "street_2": "AV B", "x": 40.721472870299998, "y": -73.983823872299993 }, "geometry": { "type": "Point", "coordinates": [ -73.983823872299993, 40.721472870299998 ] } },
{ "type": "Feature", "properties": { "lat": 40.821637392100001, "long": -73.939076833200005, "street_1": "W 145 ST", "street_2": "ADAM C POWELL BLVD", "x": 40.821637392100001, "y": -73.939076833200005 }, "geometry": { "type": "Point", "coordinates": [ -73.939076833200005, 40.821637392100001 ] } },
{ "type": "Feature", "properties": { "lat": 40.820097169599997, "long": -73.955076753200004, "street_1": "W 135 ST", "street_2": "BROADWAY", "x": 40.820097169599997, "y": -73.955076753200004 }, "geometry": { "type": "Point", "coordinates": [ -73.955076753200004, 40.820097169599997 ] } },
{ "type": "Feature", "properties": { "lat": 40.775563208800001, "long": -73.950338564999996, "street_1": "E 84 ST", "street_2": "1 AV", "x": 40.775563208800001, "y": -73.950338564999996 }, "geometry": { "type": "Point", "coordinates": [ -73.950338565, 40.775563208800001 ] } },
{ "type": "Feature", "properties": { "lat": 40.705182688400001, "long": -74.007392189200004, "street_1": "WATER ST", "street_2": "WALL ST", "x": 40.705182688400001, "y": -74.007392189200004 }, "geometry": { "type": "Point", "coordinates": [ -74.007392189200004, 40.705182688400001 ] } },
{ "type": "Feature", "properties": { "lat": 40.776320171599998, "long": -73.962124537700006, "street_1": "MADISON AV", "street_2": "E 79 ST", "x": 40.776320171599998, "y": -73.962124537700006 }, "geometry": { "type": "Point", "coordinates": [ -73.962124537700006, 40.776320171599998 ] } },
{ "type": "Feature", "properties": { "lat": 40.834059780300002, "long": -73.944879419700001, "street_1": "W 157 ST", "street_2": "BROADWAY", "x": 40.834059780300002, "y": -73.944879419700001 }, "geometry": { "type": "Point", "coordinates": [ -73.944879419700001, 40.834059780300002 ] } },
{ "type": "Feature", "properties": { "lat": 40.743324718499998, "long": -73.984074852399999, "street_1": "PARK AV S", "street_2": "E 28 ST", "x": 40.743324718499998, "y": -73.984074852399999 }, "geometry": { "type": "Point", "coordinates": [ -73.984074852399999, 40.743324718499998 ] } },
{ "type": "Feature", "properties": { "lat": 40.876733136600002, "long": -73.847298740599996, "street_1": "CORSA AV", "street_2": "BOSTON RD", "x": 40.876733136600002, "y": -73.847298740599996 }, "geometry": { "type": "Point", "coordinates": [ -73.847298740599996, 40.876733136600002 ] } },
{ "type": "Feature", "properties": { "lat": 40.8432023875, "long": -73.911937516099997, "street_1": "MOUNT EDEN PKWY", "street_2": "GRAND CONCOURSE", "x": 40.8432023875, "y": -73.911937516099997 }, "geometry": { "type": "Point", "coordinates": [ -73.911937516099997, 40.8432023875 ] } },
{ "type": "Feature", "properties": { "lat": 40.858503150200001, "long": -73.867820665699995, "street_1": "THWAITES PL", "street_2": "BOSTON RD", "x": 40.858503150200001, "y": -73.867820665699995 }, "geometry": { "type": "Point", "coordinates": [ -73.867820665699995, 40.858503150200001 ] } },
{ "type": "Feature", "properties": { "lat": 40.817388284700002, "long": -73.922758822600002, "street_1": "MORRIS AV", "street_2": "E 149 ST", "x": 40.817388284700002, "y": -73.922758822600002 }, "geometry": { "type": "Point", "coordinates": [ -73.922758822600002, 40.817388284700002 ] } },
{ "type": "Feature", "properties": { "lat": 40.862756383799997, "long": -73.901079671100007, "street_1": "W FORDHAM RD", "street_2": "JEROME AV", "x": 40.862756383799997, "y": -73.901079671100007 }, "geometry": { "type": "Point", "coordinates": [ -73.901079671100007, 40.862756383799997 ] } },
{ "type": "Feature", "properties": { "lat": 40.819694857999998, "long": -73.901601211699997, "street_1": "WESTCHESTER AV", "street_2": "LONGWOOD AV", "x": 40.819694857999998, "y": -73.901601211699997 }, "geometry": { "type": "Point", "coordinates": [ -73.901601211699997, 40.819694858 ] } },
{ "type": "Feature", "properties": { "lat": 40.858063833899998, "long": -73.8681883056, "street_1": "PELHAM PKWY N", "street_2": "BOSTON RD", "x": 40.858063833899998, "y": -73.8681883056 }, "geometry": { "type": "Point", "coordinates": [ -73.8681883056, 40.858063833899998 ] } },
{ "type": "Feature", "properties": { "lat": 40.8593073085, "long": -73.898838145100001, "street_1": "GRAND CONCOURSE", "street_2": "E 184 ST", "x": 40.8593073085, "y": -73.898838145100001 }, "geometry": { "type": "Point", "coordinates": [ -73.898838145100001, 40.8593073085 ] } },
{ "type": "Feature", "properties": { "lat": 40.822108808099998, "long": -73.9006114118, "street_1": "PROSPECT AV", "street_2": "E 163 ST", "x": 40.822108808099998, "y": -73.9006114118 }, "geometry": { "type": "Point", "coordinates": [ -73.9006114118, 40.822108808099998 ] } },
{ "type": "Feature", "properties": { "lat": 40.836769459199999, "long": -73.885964184599999, "street_1": "VYSE AV", "street_2": "E 174 ST", "x": 40.836769459199999, "y": -73.885964184599999 }, "geometry": { "type": "Point", "coordinates": [ -73.885964184599999, 40.836769459199999 ] } },
{ "type": "Feature", "properties": { "lat": 40.821011800699999, "long": -73.865746805200004, "street_1": "SOUNDVIEW AV", "street_2": "LAFAYETTE AV", "x": 40.821011800699999, "y": -73.865746805200004 }, "geometry": { "type": "Point", "coordinates": [ -73.865746805200004, 40.821011800699999 ] } },
{ "type": "Feature", "properties": { "lat": 40.83091482, "long": -73.920461122700004, "street_1": "GRAND CONCOURSE", "street_2": "E 165 ST", "x": 40.83091482, "y": -73.920461122700004 }, "geometry": { "type": "Point", "coordinates": [ -73.920461122700004, 40.83091482 ] } },
{ "type": "Feature", "properties": { "lat": 40.854199978300002, "long": -73.854407988700004, "street_1": "WILLIAMSBRIDGE RD", "street_2": "NEILL AV", "x": 40.854199978300002, "y": -73.854407988700004 }, "geometry": { "type": "Point", "coordinates": [ -73.854407988700004, 40.854199978300002 ] } },
{ "type": "Feature", "properties": { "lat": 40.8486924312, "long": -73.903280627000001, "street_1": "E TREMONT AV", "street_2": "ANTHONY AV", "x": 40.8486924312, "y": -73.903280627000001 }, "geometry": { "type": "Point", "coordinates": [ -73.903280627, 40.8486924312 ] } },
{ "type": "Feature", "properties": { "lat": 40.837862746799999, "long": -73.911393058200005, "street_1": "MORRIS AV", "street_2": "E 170 ST", "x": 40.837862746799999, "y": -73.911393058200005 }, "geometry": { "type": "Point", "coordinates": [ -73.911393058200005, 40.837862746799999 ] } },
{ "type": "Feature", "properties": { "lat": 40.814936465899997, "long": -73.914954936499996, "street_1": "E 149 ST", "street_2": "BROOK AV", "x": 40.814936465899997, "y": -73.914954936499996 }, "geometry": { "type": "Point", "coordinates": [ -73.914954936499996, 40.814936465899997 ] } },
{ "type": "Feature", "properties": { "lat": 40.846782147200003, "long": -73.883789795699997, "street_1": "SOUTHERN BLVD", "street_2": "E 181 ST", "x": 40.846782147200003, "y": -73.883789795699997 }, "geometry": { "type": "Point", "coordinates": [ -73.883789795699997, 40.846782147200003 ] } },
{ "type": "Feature", "properties": { "lat": 40.853816414199997, "long": -73.907332897299995, "street_1": "W BURNSIDE AV", "street_2": "JEROME AV", "x": 40.853816414199997, "y": -73.907332897299995 }, "geometry": { "type": "Point", "coordinates": [ -73.907332897299995, 40.853816414199997 ] } },
{ "type": "Feature", "properties": { "lat": 40.824656409399999, "long": -73.891930015, "street_1": "WESTCHESTER AV", "street_2": "SOUTHERN BLVD", "x": 40.824656409399999, "y": -73.891930015 }, "geometry": { "type": "Point", "coordinates": [ -73.891930015, 40.824656409399999 ] } },
{ "type": "Feature", "properties": { "lat": 40.840129595699999, "long": -73.880299267499993, "street_1": "W FARMS RD", "street_2": "BOSTON RD", "x": 40.840129595699999, "y": -73.880299267499993 }, "geometry": { "type": "Point", "coordinates": [ -73.880299267499993, 40.840129595699999 ] } },
{ "type": "Feature", "properties": { "lat": 40.893411438099996, "long": -73.857362817699993, "street_1": "WHITE PLAINS RD", "street_2": "E 233 ST", "x": 40.893411438099996, "y": -73.857362817699993 }, "geometry": { "type": "Point", "coordinates": [ -73.857362817699993, 40.893411438099996 ] } },
{ "type": "Feature", "properties": { "lat": 40.693649623399999, "long": -73.983320386499997, "street_1": "MYRTLE AV", "street_2": "FLATBUSH AV EX", "x": 40.693649623399999, "y": -73.983320386499997 }, "geometry": { "type": "Point", "coordinates": [ -73.983320386499997, 40.693649623399999 ] } },
{ "type": "Feature", "properties": { "lat": 40.601950488699998, "long": -73.993811093100007, "street_1": "BAY PKWY", "street_2": "86 ST", "x": 40.601950488699998, "y": -73.993811093100007 }, "geometry": { "type": "Point", "coordinates": [ -73.993811093100007, 40.601950488699998 ] } },
{ "type": "Feature", "properties": { "lat": 40.6503872734, "long": -73.958707899199993, "street_1": "FLATBUSH AV", "street_2": "CHURCH AV", "x": 40.6503872734, "y": -73.958707899199993 }, "geometry": { "type": "Point", "coordinates": [ -73.958707899199993, 40.6503872734 ] } },
{ "type": "Feature", "properties": { "lat": 40.680088128500003, "long": -73.943973478100006, "street_1": "FULTON ST", "street_2": "BROOKLYN AV", "x": 40.680088128500003, "y": -73.943973478100006 }, "geometry": { "type": "Point", "coordinates": [ -73.943973478100006, 40.680088128500003 ] } },
{ "type": "Feature", "properties": { "lat": 40.710956619500003, "long": -73.951115657000003, "street_1": "UNION AV", "street_2": "GRAND ST", "x": 40.710956619500003, "y": -73.951115657000003 }, "geometry": { "type": "Point", "coordinates": [ -73.951115657, 40.710956619500003 ] } },
{ "type": "Feature", "properties": { "lat": 40.5985516123, "long": -73.997339196300004, "street_1": "BAY PKWY", "street_2": "BATH AV", "x": 40.5985516123, "y": -73.997339196300004 }, "geometry": { "type": "Point", "coordinates": [ -73.997339196300004, 40.5985516123 ] } },
{ "type": "Feature", "properties": { "lat": 40.632884747600002, "long": -73.947699317499996, "street_1": "NOSTRAND AV", "street_2": "FLATBUSH AV", "x": 40.632884747600002, "y": -73.947699317499996 }, "geometry": { "type": "Point", "coordinates": [ -73.947699317499996, 40.632884747600002 ] } },
{ "type": "Feature", "properties": { "lat": 40.678577111499997, "long": -73.91630119860001, "street_1": "SARATOGA AV", "street_2": "FULTON ST", "x": 40.678577111499997, "y": -73.91630119860001 }, "geometry": { "type": "Point", "coordinates": [ -73.91630119860001, 40.678577111499997 ] } },
{ "type": "Feature", "properties": { "lat": 40.678456681, "long": -73.949675674700003, "street_1": "NOSTRAND AV", "street_2": "ATLANTIC AV", "x": 40.678456681, "y": -73.949675674700003 }, "geometry": { "type": "Point", "coordinates": [ -73.949675674700003, 40.678456681 ] } },
{ "type": "Feature", "properties": { "lat": 40.6689504446, "long": -73.933887736200006, "street_1": "SCHENECTADY AV", "street_2": "EASTERN PKWY", "x": 40.6689504446, "y": -73.933887736200006 }, "geometry": { "type": "Point", "coordinates": [ -73.933887736200006, 40.6689504446 ] } },
{ "type": "Feature", "properties": { "lat": 40.579805277600002, "long": -73.971833309399997, "street_1": "W 5 ST", "street_2": "NEPTUNE AV", "x": 40.579805277600002, "y": -73.971833309399997 }, "geometry": { "type": "Point", "coordinates": [ -73.971833309399997, 40.579805277600002 ] } },
{ "type": "Feature", "properties": { "lat": 40.612549485899997, "long": -73.962859740900001, "street_1": "CONEY ISLAND AV", "street_2": "AV O", "x": 40.612549485899997, "y": -73.962859740900001 }, "geometry": { "type": "Point", "coordinates": [ -73.962859740900001, 40.612549485899997 ] } },
{ "type": "Feature", "properties": { "lat": 40.684052286300002, "long": -73.977457220199994, "street_1": "FLATBUSH AV", "street_2": "ATLANTIC AV", "x": 40.684052286300002, "y": -73.977457220199994 }, "geometry": { "type": "Point", "coordinates": [ -73.977457220199994, 40.684052286300002 ] } },
{ "type": "Feature", "properties": { "lat": 40.686309694000002, "long": -73.974439957599998, "street_1": "S PORTLAND AV", "street_2": "FULTON ST", "x": 40.686309694000002, "y": -73.974439957599998 }, "geometry": { "type": "Point", "coordinates": [ -73.974439957599998, 40.686309694 ] } },
{ "type": "Feature", "properties": { "lat": 40.642796214699999, "long": -73.979442303699997, "street_1": "MC DONALD AV", "street_2": "CHURCH AV", "x": 40.642796214699999, "y": -73.979442303699997 }, "geometry": { "type": "Point", "coordinates": [ -73.979442303699997, 40.642796214699999 ] } },
{ "type": "Feature", "properties": { "lat": 40.699404540099998, "long": -73.953370007100006, "street_1": "NOSTRAND AV", "street_2": "FLUSHING AV", "x": 40.699404540099998, "y": -73.953370007100006 }, "geometry": { "type": "Point", "coordinates": [ -73.953370007100006, 40.699404540099998 ] } },
{ "type": "Feature", "properties": { "lat": 40.640837326499998, "long": -74.0184307042, "street_1": "60 ST", "street_2": "4 AV", "x": 40.640837326499998, "y": -74.0184307042 }, "geometry": { "type": "Point", "coordinates": [ -74.0184307042, 40.640837326499998 ] } },
{ "type": "Feature", "properties": { "lat": 40.637296906400003, "long": -73.968223433099993, "street_1": "DORCHESTER RD", "street_2": "CONEY ISLAND AV", "x": 40.637296906400003, "y": -73.968223433099993 }, "geometry": { "type": "Point", "coordinates": [ -73.968223433099993, 40.637296906400003 ] } },
{ "type": "Feature", "properties": { "lat": 40.652144557, "long": -73.959150010499997, "street_1": "LINDEN BLVD", "street_2": "FLATBUSH AV", "x": 40.652144557, "y": -73.959150010499997 }, "geometry": { "type": "Point", "coordinates": [ -73.959150010499997, 40.652144557 ] } },
{ "type": "Feature", "properties": { "lat": 40.640589385399998, "long": -73.954280612900007, "street_1": "BEDFORD AV", "street_2": "AV D", "x": 40.640589385399998, "y": -73.954280612900007 }, "geometry": { "type": "Point", "coordinates": [ -73.954280612900007, 40.640589385399998 ] } },
{ "type": "Feature", "properties": { "lat": 40.662554607399997, "long": -73.908920352899997, "street_1": "ROCKAWAY AV", "street_2": "LIVONIA AV", "x": 40.662554607399997, "y": -73.908920352899997 }, "geometry": { "type": "Point", "coordinates": [ -73.908920352899997, 40.662554607399997 ] } },
{ "type": "Feature", "properties": { "lat": 40.663534783099998, "long": -73.934477848100002, "street_1": "SCHENECTADY AV", "street_2": "EMPIRE BLVD", "x": 40.663534783099998, "y": -73.934477848100002 }, "geometry": { "type": "Point", "coordinates": [ -73.934477848100002, 40.663534783099998 ] } },
{ "type": "Feature", "properties": { "lat": 40.663223311599999, "long": -73.893650122500006, "street_1": "RIVERDALE AV", "street_2": "PENNSYLVANIA AV", "x": 40.663223311599999, "y": -73.893650122500006 }, "geometry": { "type": "Point", "coordinates": [ -73.893650122500006, 40.663223311599999 ] } },
{ "type": "Feature", "properties": { "lat": 40.694010503000001, "long": -73.961092641899995, "street_1": "MYRTLE AV", "street_2": "CLASSON AV", "x": 40.694010503000001, "y": -73.961092641899995 }, "geometry": { "type": "Point", "coordinates": [ -73.961092641899995, 40.694010503 ] } },
{ "type": "Feature", "properties": { "lat": 40.623680269200001, "long": -73.997713589900002, "street_1": "NEW UTRECHT AV", "street_2": "65 ST", "x": 40.623680269200001, "y": -73.997713589900002 }, "geometry": { "type": "Point", "coordinates": [ -73.997713589900002, 40.623680269200001 ] } },
{ "type": "Feature", "properties": { "lat": 40.664952099499999, "long": -73.922878602400004, "street_1": "RUTLAND RD", "street_2": "E 98 ST", "x": 40.664952099499999, "y": -73.922878602400004 }, "geometry": { "type": "Point", "coordinates": [ -73.922878602400004, 40.664952099499999 ] } },
{ "type": "Feature", "properties": { "lat": 40.586260723099997, "long": -73.948921686999995, "street_1": "VOORHIES AV", "street_2": "OCEAN AV", "x": 40.586260723099997, "y": -73.948921686999995 }, "geometry": { "type": "Point", "coordinates": [ -73.948921687, 40.586260723099997 ] } },
{ "type": "Feature", "properties": { "lat": 40.683935848200001, "long": -73.871187335599998, "street_1": "HEMLOCK ST", "street_2": "FULTON ST", "x": 40.683935848200001, "y": -73.871187335599998 }, "geometry": { "type": "Point", "coordinates": [ -73.871187335599998, 40.683935848200001 ] } },
{ "type": "Feature", "properties": { "lat": 40.654134781700002, "long": -73.912328244099996, "street_1": "ROCKAWAY PKWY", "street_2": "LINDEN BLVD", "x": 40.654134781700002, "y": -73.912328244099996 }, "geometry": { "type": "Point", "coordinates": [ -73.912328244099996, 40.654134781700002 ] } },
{ "type": "Feature", "properties": { "lat": 40.7246367734, "long": -73.9481719467, "street_1": "NASSAU AV", "street_2": "MC GUINNESS BLVD", "x": 40.7246367734, "y": -73.9481719467 }, "geometry": { "type": "Point", "coordinates": [ -73.9481719467, 40.7246367734 ] } },
{ "type": "Feature", "properties": { "lat": 40.679491085099997, "long": -73.879266924999996, "street_1": "MONTAUK AV", "street_2": "ATLANTIC AV", "x": 40.679491085099997, "y": -73.879266924999996 }, "geometry": { "type": "Point", "coordinates": [ -73.879266925, 40.679491085099997 ] } },
{ "type": "Feature", "properties": { "lat": 40.641784651599998, "long": -73.935138722800005, "street_1": "TROY AV", "street_2": "AV D", "x": 40.641784651599998, "y": -73.935138722800005 }, "geometry": { "type": "Point", "coordinates": [ -73.935138722800005, 40.641784651599998 ] } },
{ "type": "Feature", "properties": { "lat": 40.710749777300002, "long": -73.953361322600003, "street_1": "S 1 ST", "street_2": "BORINQUEN PL", "x": 40.710749777300002, "y": -73.953361322600003 }, "geometry": { "type": "Point", "coordinates": [ -73.953361322600003, 40.710749777300002 ] } },
{ "type": "Feature", "properties": { "lat": 40.657814663899998, "long": -73.896125872900001, "street_1": "WILLIAMS AV", "street_2": "LINDEN BLVD", "x": 40.657814663899998, "y": -73.896125872900001 }, "geometry": { "type": "Point", "coordinates": [ -73.896125872900001, 40.657814663899998 ] } },
{ "type": "Feature", "properties": { "lat": 40.679276432499996, "long": -73.929057282599999, "street_1": "UTICA AV", "street_2": "FULTON ST", "x": 40.679276432499996, "y": -73.929057282599999 }, "geometry": { "type": "Point", "coordinates": [ -73.929057282599999, 40.679276432499996 ] } },
{ "type": "Feature", "properties": { "lat": 40.655422997400002, "long": -73.950066649500002, "street_1": "NOSTRAND AV", "street_2": "CLARKSON AV", "x": 40.655422997400002, "y": -73.950066649500002 }, "geometry": { "type": "Point", "coordinates": [ -73.950066649500002, 40.655422997400002 ] } },
{ "type": "Feature", "properties": { "lat": 40.663752599, "long": -73.937158472999997, "street_1": "TROY AV", "street_2": "EMPIRE BLVD", "x": 40.663752599, "y": -73.937158472999997 }, "geometry": { "type": "Point", "coordinates": [ -73.937158473, 40.663752599 ] } },
{ "type": "Feature", "properties": { "lat": 40.664752093600001, "long": -73.894042364599997, "street_1": "PENNSYLVANIA AV", "street_2": "LIVONIA AV", "x": 40.664752093600001, "y": -73.894042364599997 }, "geometry": { "type": "Point", "coordinates": [ -73.894042364599997, 40.664752093600001 ] } },
{ "type": "Feature", "properties": { "lat": 40.692126228600003, "long": -73.989035501999993, "street_1": "JORALEMON ST", "street_2": "BOERUM PL", "x": 40.692126228600003, "y": -73.989035501999993 }, "geometry": { "type": "Point", "coordinates": [ -73.989035502, 40.692126228600003 ] } },
{ "type": "Feature", "properties": { "lat": 40.635440385700001, "long": -73.979111887299993, "street_1": "DITMAS AV", "street_2": "DAHILL RD", "x": 40.635440385700001, "y": -73.979111887299993 }, "geometry": { "type": "Point", "coordinates": [ -73.979111887299993, 40.635440385700001 ] } },
{ "type": "Feature", "properties": { "lat": 40.605334439499998, "long": -73.755273846500003, "street_1": "MOTT AV", "street_2": "BEACH CHANNEL DR", "x": 40.605334439499998, "y": -73.755273846500003 }, "geometry": { "type": "Point", "coordinates": [ -73.755273846500003, 40.605334439499998 ] } },
{ "type": "Feature", "properties": { "lat": 40.727758293299999, "long": -73.892284930700001, "street_1": "GRAND AV", "street_2": "71 ST", "x": 40.727758293299999, "y": -73.892284930700001 }, "geometry": { "type": "Point", "coordinates": [ -73.892284930700001, 40.727758293299999 ] } },
{ "type": "Feature", "properties": { "lat": 40.721454642899999, "long": -73.843978156600002, "street_1": "QUEENS BLVD", "street_2": "71 AV", "x": 40.721454642899999, "y": -73.843978156600002 }, "geometry": { "type": "Point", "coordinates": [ -73.843978156600002, 40.721454642899999 ] } },
{ "type": "Feature", "properties": { "lat": 40.706360268300003, "long": -73.7925263108, "street_1": "JAMAICA AV", "street_2": "168 ST", "x": 40.706360268300003, "y": -73.7925263108 }, "geometry": { "type": "Point", "coordinates": [ -73.7925263108, 40.706360268300003 ] } },
{ "type": "Feature", "properties": { "lat": 40.717678799399998, "long": -73.8171247999, "street_1": "UNION TPKE", "street_2": "MAIN ST", "x": 40.717678799399998, "y": -73.8171247999 }, "geometry": { "type": "Point", "coordinates": [ -73.8171247999, 40.717678799399998 ] } },
{ "type": "Feature", "properties": { "lat": 40.7132857143, "long": -73.735792681600003, "street_1": "SPRINGFIELD BLVD", "street_2": "HEMPSTEAD AV", "x": 40.7132857143, "y": -73.735792681600003 }, "geometry": { "type": "Point", "coordinates": [ -73.735792681600003, 40.7132857143 ] } },
{ "type": "Feature", "properties": { "lat": 40.700581687300001, "long": -73.807742009500004, "street_1": "SUTPHIN BLVD", "street_2": "ARCHER AV", "x": 40.700581687300001, "y": -73.807742009500004 }, "geometry": { "type": "Point", "coordinates": [ -73.807742009500004, 40.700581687300001 ] } },
{ "type": "Feature", "properties": { "lat": 40.741840661600001, "long": -73.881003879800005, "street_1": "ELMHURST AV", "street_2": "BROADWAY", "x": 40.741840661600001, "y": -73.881003879800005 }, "geometry": { "type": "Point", "coordinates": [ -73.881003879800005, 40.741840661600001 ] } },
{ "type": "Feature", "properties": { "lat": 40.6961693071, "long": -73.804489837999995, "street_1": "SUTPHIN BLVD", "street_2": "LIBERTY AV", "x": 40.6961693071, "y": -73.804489837999995 }, "geometry": { "type": "Point", "coordinates": [ -73.804489838, 40.6961693071 ] } },
{ "type": "Feature", "properties": { "lat": 40.750382010700001, "long": -73.939633486899993, "street_1": "QUEENS PLZ", "street_2": "27 ST", "x": 40.750382010700001, "y": -73.939633486899993 }, "geometry": { "type": "Point", "coordinates": [ -73.939633486899993, 40.750382010700001 ] } },
{ "type": "Feature", "properties": { "lat": 40.66639532, "long": -73.751758865400006, "street_1": "N CONDUIT AV", "street_2": "225 ST", "x": 40.66639532, "y": -73.751758865400006 }, "geometry": { "type": "Point", "coordinates": [ -73.751758865400006, 40.66639532 ] } },
{ "type": "Feature", "properties": { "lat": 40.736997339699997, "long": -73.851688250400002, "street_1": "62 AV", "street_2": "108 ST", "x": 40.736997339699997, "y": -73.851688250400002 }, "geometry": { "type": "Point", "coordinates": [ -73.851688250400002, 40.736997339699997 ] } },
{ "type": "Feature", "properties": { "lat": 40.708201730200003, "long": -73.801076997600006, "street_1": "HILLSIDE AV", "street_2": "161 ST", "x": 40.708201730200003, "y": -73.801076997600006 }, "geometry": { "type": "Point", "coordinates": [ -73.801076997600006, 40.708201730200003 ] } },
{ "type": "Feature", "properties": { "lat": 40.773036168300003, "long": -73.795654479500001, "street_1": "FRANCIS LEWIS BLVD", "street_2": "169 ST", "x": 40.773036168300003, "y": -73.795654479500001 }, "geometry": { "type": "Point", "coordinates": [ -73.795654479500001, 40.773036168300003 ] } },
{ "type": "Feature", "properties": { "lat": 40.722307782599998, "long": -73.844134467800004, "street_1": "70 RD", "street_2": "108 ST", "x": 40.722307782599998, "y": -73.844134467800004 }, "geometry": { "type": "Point", "coordinates": [ -73.844134467800004, 40.722307782599998 ] } },
{ "type": "Feature", "properties": { "lat": 40.662522952300009, "long": -73.840702802799996, "street_1": "CROSS BAY BLVD", "street_2": "157 AV", "x": 40.662522952300009, "y": -73.840702802799996 }, "geometry": { "type": "Point", "coordinates": [ -73.840702802799996, 40.662522952300009 ] } },
{ "type": "Feature", "properties": { "lat": 40.752321483099998, "long": -73.859586087099999, "street_1": "38 AV", "street_2": "108 ST", "x": 40.752321483099998, "y": -73.859586087099999 }, "geometry": { "type": "Point", "coordinates": [ -73.859586087099999, 40.752321483099998 ] } },
{ "type": "Feature", "properties": { "lat": 40.748779222499998, "long": -73.809760354000005, "street_1": "ROSE AV", "street_2": "PARSONS BLVD", "x": 40.748779222499998, "y": -73.809760354000005 }, "geometry": { "type": "Point", "coordinates": [ -73.809760354, 40.748779222499998 ] } },
{ "type": "Feature", "properties": { "lat": 40.741677696700002, "long": -73.867557294799994, "street_1": "JUNCTION BLVD", "street_2": "50 AV", "x": 40.741677696700002, "y": -73.867557294799994 }, "geometry": { "type": "Point", "coordinates": [ -73.867557294799994, 40.741677696700002 ] } },
{ "type": "Feature", "properties": { "lat": 40.759570445000001, "long": -73.830139595299997, "street_1": "ROOSEVELT AV", "street_2": "MAIN ST", "x": 40.759570445000001, "y": -73.830139595299997 }, "geometry": { "type": "Point", "coordinates": [ -73.830139595299997, 40.759570445 ] } },
{ "type": "Feature", "properties": { "lat": 40.735632736, "long": -73.876017103899997, "street_1": "QUEENS BLVD", "street_2": "55 AV", "x": 40.735632736, "y": -73.876017103899997 }, "geometry": { "type": "Point", "coordinates": [ -73.876017103899997, 40.735632736 ] } },
{ "type": "Feature", "properties": { "lat": 40.758949082299999, "long": -73.831910343199993, "street_1": "ROOSEVELT AV", "street_2": "PRINCE ST", "x": 40.758949082299999, "y": -73.831910343199993 }, "geometry": { "type": "Point", "coordinates": [ -73.831910343199993, 40.758949082299999 ] } },
{ "type": "Feature", "properties": { "lat": 40.709207743299999, "long": -73.870164623899996, "street_1": "COOPER AV", "street_2": "80 ST", "x": 40.709207743299999, "y": -73.870164623899996 }, "geometry": { "type": "Point", "coordinates": [ -73.870164623899996, 40.709207743299999 ] } },
{ "type": "Feature", "properties": { "lat": 40.686304690100002, "long": -73.793908417699996, "street_1": "SUTPHIN BLVD", "street_2": "LINDEN BLVD", "x": 40.686304690100002, "y": -73.793908417699996 }, "geometry": { "type": "Point", "coordinates": [ -73.793908417699996, 40.686304690100002 ] } },
{ "type": "Feature", "properties": { "lat": 40.6954602693, "long": -73.805355620599997, "street_1": "WALTHAM ST", "street_2": "LIBERTY AV", "x": 40.6954602693, "y": -73.805355620599997 }, "geometry": { "type": "Point", "coordinates": [ -73.805355620599997, 40.6954602693 ] } },
{ "type": "Feature", "properties": { "lat": 40.737682053599997, "long": -73.852047587100003, "street_1": "HOR HARDING EXWY SR N", "street_2": "108 ST", "x": 40.737682053599997, "y": -73.852047587100003 }, "geometry": { "type": "Point", "coordinates": [ -73.852047587100003, 40.737682053599997 ] } },
{ "type": "Feature", "properties": { "lat": 40.696865585300003, "long": -73.837166573900006, "street_1": "JAMAICA AV", "street_2": "111 ST", "x": 40.696865585300003, "y": -73.837166573900006 }, "geometry": { "type": "Point", "coordinates": [ -73.837166573900006, 40.696865585300003 ] } },
{ "type": "Feature", "properties": { "lat": 40.721462545100003, "long": -73.804526802500007, "street_1": "UNION TPKE", "street_2": "164 ST", "x": 40.721462545100003, "y": -73.804526802500007 }, "geometry": { "type": "Point", "coordinates": [ -73.804526802500007, 40.721462545100003 ] } },
{ "type": "Feature", "properties": { "lat": 40.694064926099998, "long": -73.828011973399995, "street_1": "LEFFERTS BLVD", "street_2": "ATLANTIC AV", "x": 40.694064926099998, "y": -73.828011973399995 }, "geometry": { "type": "Point", "coordinates": [ -73.828011973399995, 40.694064926099998 ] } },
{ "type": "Feature", "properties": { "lat": 40.718498217799997, "long": -73.735303711100002, "street_1": "SPRINGFIELD BLVD", "street_2": "JAMAICA AV", "x": 40.718498217799997, "y": -73.735303711100002 }, "geometry": { "type": "Point", "coordinates": [ -73.735303711100002, 40.718498217799997 ] } },
{ "type": "Feature", "properties": { "lat": 40.624592806599999, "long": -74.141281837099996, "street_1": "FOREST AV", "street_2": "DECKER AV", "x": 40.624592806599999, "y": -74.141281837099996 }, "geometry": { "type": "Point", "coordinates": [ -74.141281837099996, 40.624592806599999 ] } },
{ "type": "Feature", "properties": { "lat": 40.563915637900003, "long": -74.116363363299996, "street_1": "TYSENS LA", "street_2": "HYLAN BLVD", "x": 40.563915637900003, "y": -74.116363363299996 }, "geometry": { "type": "Point", "coordinates": [ -74.116363363299996, 40.563915637900003 ] } },
{ "type": "Feature", "properties": { "lat": 40.581241705499998, "long": -74.098440008699995, "street_1": "JEFFERSON AV", "street_2": "HYLAN BLVD", "x": 40.581241705499998, "y": -74.098440008699995 }, "geometry": { "type": "Point", "coordinates": [ -74.098440008699995, 40.581241705499998 ] } },
{ "type": "Feature", "properties": { "lat": 40.574906984499997, "long": -74.121726238299999, "street_1": "RICHMOND RD", "street_2": "AMBOY RD", "x": 40.574906984499997, "y": -74.121726238299999 }, "geometry": { "type": "Point", "coordinates": [ -74.121726238299999, 40.574906984499997 ] } },
{ "type": "Feature", "properties": { "lat": 40.5664971884, "long": -74.113761612100006, "street_1": "HYLAN BLVD", "street_2": "EBBITTS ST", "x": 40.5664971884, "y": -74.113761612100006 }, "geometry": { "type": "Point", "coordinates": [ -74.113761612100006, 40.5664971884 ] } },
{ "type": "Feature", "properties": { "lat": 40.534268148099997, "long": -74.153974197300002, "street_1": "RICHMOND AV", "street_2": "HYLAN BLVD", "x": 40.534268148099997, "y": -74.153974197300002 }, "geometry": { "type": "Point", "coordinates": [ -74.153974197300002, 40.534268148099997 ] } },
{ "type": "Feature", "properties": { "lat": 40.612557845300003, "long": -74.130718791600003, "street_1": "WATCHOGUE RD", "street_2": "VICTORY BLVD", "x": 40.612557845300003, "y": -74.130718791600003 }, "geometry": { "type": "Point", "coordinates": [ -74.130718791600003, 40.612557845300003 ] } },
{ "type": "Feature", "properties": { "lat": 40.5903420191, "long": -74.0666255947, "street_1": "SAND LA", "street_2": "FR CAPODANNO BLVD", "x": 40.5903420191, "y": -74.0666255947 }, "geometry": { "type": "Point", "coordinates": [ -74.0666255947, 40.5903420191 ] } },
{ "type": "Feature", "properties": { "lat": 40.637229584400004, "long": -74.080869763500004, "street_1": "VICTORY BLVD", "street_2": "FREMONT ST", "x": 40.637229584400004, "y": -74.080869763500004 }, "geometry": { "type": "Point", "coordinates": [ -74.080869763500004, 40.637229584400004 ] } },
{ "type": "Feature", "properties": { "lat": 40.757233131, "long": -73.989790853700001, "street_1": "W 42 ST", "street_2": "8 AV", "x": 40.757233131, "y": -73.989790853700001 }, "geometry": { "type": "Point", "coordinates": [ -73.989790853700001, 40.757233131 ] } },
{ "type": "Feature", "properties": { "lat": 40.758429686699998, "long": -73.992633012, "street_1": "W 42 ST", "street_2": "9 AV", "x": 40.758429686699998, "y": -73.992633012 }, "geometry": { "type": "Point", "coordinates": [ -73.992633012, 40.758429686699998 ] } },
{ "type": "Feature", "properties": { "lat": 40.7498230044, "long": -73.972203722100005, "street_1": "E 42 ST", "street_2": "2 AV", "x": 40.7498230044, "y": -73.972203722100005 }, "geometry": { "type": "Point", "coordinates": [ -73.972203722100005, 40.7498230044 ] } },
{ "type": "Feature", "properties": { "lat": 40.754842053399997, "long": -73.984117548200004, "street_1": "W 42 ST", "street_2": "AV OF THE AMERICAS", "x": 40.754842053399997, "y": -73.984117548200004 }, "geometry": { "type": "Point", "coordinates": [ -73.984117548200004, 40.754842053399997 ] } },
{ "type": "Feature", "properties": { "lat": 40.754250534900002, "long": -73.968978037900001, "street_1": "E 49 ST", "street_2": "2 AV", "x": 40.754250534900002, "y": -73.968978037900001 }, "geometry": { "type": "Point", "coordinates": [ -73.968978037900001, 40.754250534900002 ] } },
{ "type": "Feature", "properties": { "lat": 40.799286862199999, "long": -73.945359063300003, "street_1": "MADISON AV", "street_2": "E 115 ST", "x": 40.799286862199999, "y": -73.945359063300003 }, "geometry": { "type": "Point", "coordinates": [ -73.945359063300003, 40.799286862199999 ] } },
{ "type": "Feature", "properties": { "lat": 40.848392728, "long": -73.937672370499996, "street_1": "W 178 ST", "street_2": "BROADWAY", "x": 40.848392728, "y": -73.937672370499996 }, "geometry": { "type": "Point", "coordinates": [ -73.937672370499996, 40.848392728 ] } },
{ "type": "Feature", "properties": { "lat": 40.736962486800003, "long": -73.984507576400006, "street_1": "E 20 ST", "street_2": "3 AV", "x": 40.736962486800003, "y": -73.984507576400006 }, "geometry": { "type": "Point", "coordinates": [ -73.984507576400006, 40.736962486800003 ] } },
{ "type": "Feature", "properties": { "lat": 40.813375023900001, "long": -73.956269581100003, "street_1": "W 125 ST", "street_2": "AMSTERDAM AV", "x": 40.813375023900001, "y": -73.956269581100003 }, "geometry": { "type": "Point", "coordinates": [ -73.956269581100003, 40.813375023900001 ] } },
{ "type": "Feature", "properties": { "lat": 40.71623164, "long": -73.996058727399998, "street_1": "MN BR APPR", "street_2": "BOWERY", "x": 40.71623164, "y": -73.996058727399998 }, "geometry": { "type": "Point", "coordinates": [ -73.996058727399998, 40.71623164 ] } },
{ "type": "Feature", "properties": { "lat": 40.805056457299997, "long": -73.939034983300004, "street_1": "PARK AV", "street_2": "E 125 ST", "x": 40.805056457299997, "y": -73.939034983300004 }, "geometry": { "type": "Point", "coordinates": [ -73.939034983300004, 40.805056457299997 ] } },
{ "type": "Feature", "properties": { "lat": 40.736004491400003, "long": -73.993616884399998, "street_1": "W 14 ST", "street_2": "5 AV", "x": 40.736004491400003, "y": -73.993616884399998 }, "geometry": { "type": "Point", "coordinates": [ -73.993616884399998, 40.736004491400003 ] } },
{ "type": "Feature", "properties": { "lat": 40.7185556795, "long": -73.988201736700006, "street_1": "ESSEX ST", "street_2": "DELANCEY ST", "x": 40.7185556795, "y": -73.988201736700006 }, "geometry": { "type": "Point", "coordinates": [ -73.988201736700006, 40.7185556795 ] } },
{ "type": "Feature", "properties": { "lat": 40.722549502, "long": -74.006298416299998, "street_1": "VARICK ST", "street_2": "CANAL ST", "x": 40.722549502, "y": -74.006298416299998 }, "geometry": { "type": "Point", "coordinates": [ -74.006298416299998, 40.722549502 ] } },
{ "type": "Feature", "properties": { "lat": 40.794650942899999, "long": -73.971784248299997, "street_1": "W 96 ST", "street_2": "BROADWAY", "x": 40.794650942899999, "y": -73.971784248299997 }, "geometry": { "type": "Point", "coordinates": [ -73.971784248299997, 40.794650942899999 ] } },
{ "type": "Feature", "properties": { "lat": 40.736790956500002, "long": -73.978498455899995, "street_1": "E 23 ST", "street_2": "1 AV", "x": 40.736790956500002, "y": -73.978498455899995 }, "geometry": { "type": "Point", "coordinates": [ -73.978498455899995, 40.736790956500002 ] } },
{ "type": "Feature", "properties": { "lat": 40.740184799899993, "long": -73.986361417400005, "street_1": "PARK AV S", "street_2": "E 23 ST", "x": 40.740184799899993, "y": -73.986361417400005 }, "geometry": { "type": "Point", "coordinates": [ -73.986361417400005, 40.740184799899993 ] } },
{ "type": "Feature", "properties": { "lat": 40.746402875900003, "long": -73.979723464700001, "street_1": "LEXINGTON AV", "street_2": "E 34 ST", "x": 40.746402875900003, "y": -73.979723464700001 }, "geometry": { "type": "Point", "coordinates": [ -73.979723464700001, 40.746402875900003 ] } },
{ "type": "Feature", "properties": { "lat": 40.771391103100001, "long": -73.950435605899997, "street_1": "YORK AV", "street_2": "E 79 ST", "x": 40.771391103100001, "y": -73.950435605899997 }, "geometry": { "type": "Point", "coordinates": [ -73.950435605899997, 40.771391103100001 ] } },
{ "type": "Feature", "properties": { "lat": 40.717279243100002, "long": -73.995428758700001, "street_1": "HESTER ST", "street_2": "BOWERY", "x": 40.717279243100002, "y": -73.995428758700001 }, "geometry": { "type": "Point", "coordinates": [ -73.995428758700001, 40.717279243100002 ] } },
{ "type": "Feature", "properties": { "lat": 40.830383053799999, "long": -73.940167496800001, "street_1": "W 155 ST", "street_2": "EDGECOMBE AV", "x": 40.830383053799999, "y": -73.940167496800001 }, "geometry": { "type": "Point", "coordinates": [ -73.940167496800001, 40.830383053799999 ] } },
{ "type": "Feature", "properties": { "lat": 40.765364181000002, "long": -73.987576739100007, "street_1": "W 53 ST", "street_2": "9 AV", "x": 40.765364181000002, "y": -73.987576739100007 }, "geometry": { "type": "Point", "coordinates": [ -73.987576739100007, 40.765364181 ] } },
{ "type": "Feature", "properties": { "lat": 40.758021303200003, "long": -73.981794042600001, "street_1": "W 47 ST", "street_2": "AV OF THE AMERICAS", "x": 40.758021303200003, "y": -73.981794042600001 }, "geometry": { "type": "Point", "coordinates": [ -73.981794042600001, 40.758021303200003 ] } },
{ "type": "Feature", "properties": { "lat": 40.732255372499999, "long": -73.996351252899998, "street_1": "W 8 ST", "street_2": "5 AV", "x": 40.732255372499999, "y": -73.996351252899998 }, "geometry": { "type": "Point", "coordinates": [ -73.996351252899998, 40.732255372499999 ] } },
{ "type": "Feature", "properties": { "lat": 40.732347603199997, "long": -73.984941027900007, "street_1": "E 14 ST", "street_2": "2 AV", "x": 40.732347603199997, "y": -73.984941027900007 }, "geometry": { "type": "Point", "coordinates": [ -73.984941027900007, 40.732347603199997 ] } },
{ "type": "Feature", "properties": { "lat": 40.760599230899999, "long": -73.964313536399999, "street_1": "QUEENSBORO BR APPR", "street_2": "2 AV", "x": 40.760599230899999, "y": -73.964313536399999 }, "geometry": { "type": "Point", "coordinates": [ -73.964313536399999, 40.760599230899999 ] } },
{ "type": "Feature", "properties": { "lat": 40.735215300299998, "long": -73.991714987400002, "street_1": "UNIVERSITY PL", "street_2": "E 14 ST", "x": 40.735215300299998, "y": -73.991714987400002 }, "geometry": { "type": "Point", "coordinates": [ -73.991714987400002, 40.735215300299998 ] } },
{ "type": "Feature", "properties": { "lat": 40.772339801699999, "long": -73.952685797599997, "street_1": "E 79 ST", "street_2": "1 AV", "x": 40.772339801699999, "y": -73.952685797599997 }, "geometry": { "type": "Point", "coordinates": [ -73.952685797599997, 40.772339801699999 ] } },
{ "type": "Feature", "properties": { "lat": 40.764215685800004, "long": -73.970956650700003, "street_1": "MADISON AV", "street_2": "E 60 ST", "x": 40.764215685800004, "y": -73.970956650700003 }, "geometry": { "type": "Point", "coordinates": [ -73.970956650700003, 40.764215685800004 ] } },
{ "type": "Feature", "properties": { "lat": 40.760524700399998, "long": -73.979971881799983, "street_1": "W 51 ST", "street_2": "AV OF THE AMERICAS", "x": 40.760524700399998, "y": -73.979971881799983 }, "geometry": { "type": "Point", "coordinates": [ -73.979971881799983, 40.760524700399998 ] } },
{ "type": "Feature", "properties": { "lat": 40.762914873699998, "long": -73.985646778200007, "street_1": "W 51 ST", "street_2": "8 AV", "x": 40.762914873699998, "y": -73.985646778200007 }, "geometry": { "type": "Point", "coordinates": [ -73.985646778200007, 40.762914873699998 ] } },
{ "type": "Feature", "properties": { "lat": 40.762806360299997, "long": -73.993156239699999, "street_1": "W 47 ST", "street_2": "10 AV", "x": 40.762806360299997, "y": -73.993156239699999 }, "geometry": { "type": "Point", "coordinates": [ -73.993156239699999, 40.762806360299997 ] } },
{ "type": "Feature", "properties": { "lat": 40.7746113468, "long": -73.948083206700005, "street_1": "YORK AV", "street_2": "E 84 ST", "x": 40.7746113468, "y": -73.948083206700005 }, "geometry": { "type": "Point", "coordinates": [ -73.948083206700005, 40.7746113468 ] } },
{ "type": "Feature", "properties": { "lat": 40.723624837000003, "long": -74.004785749099995, "street_1": "WATTS ST", "street_2": "AV OF THE AMERICAS", "x": 40.723624837000003, "y": -74.004785749099995 }, "geometry": { "type": "Point", "coordinates": [ -74.004785749099995, 40.723624837 ] } },
{ "type": "Feature", "properties": { "lat": 40.820174350199999, "long": -73.890655337699997, "street_1": "HUNTS PT AV", "street_2": "BRUCKNER BLVD", "x": 40.820174350199999, "y": -73.890655337699997 }, "geometry": { "type": "Point", "coordinates": [ -73.890655337699997, 40.820174350199999 ] } },
{ "type": "Feature", "properties": { "lat": 40.877392425700002, "long": -73.866489087199994, "street_1": "WHITE PLAINS RD", "street_2": "E GUN HILL RD", "x": 40.877392425700002, "y": -73.866489087199994 }, "geometry": { "type": "Point", "coordinates": [ -73.866489087199994, 40.877392425700002 ] } },
{ "type": "Feature", "properties": { "lat": 40.804586467599997, "long": -73.912124960499995, "street_1": "E 138 ST", "street_2": "BRUCKNER BLVD", "x": 40.804586467599997, "y": -73.912124960499995 }, "geometry": { "type": "Point", "coordinates": [ -73.912124960499995, 40.804586467599997 ] } },
{ "type": "Feature", "properties": { "lat": 40.8387216482, "long": -73.913771049600001, "street_1": "GRAND CONCOURSE", "street_2": "E 170 ST", "x": 40.8387216482, "y": -73.913771049600001 }, "geometry": { "type": "Point", "coordinates": [ -73.913771049600001, 40.8387216482 ] } },
{ "type": "Feature", "properties": { "lat": 40.878546576799998, "long": -73.865778585200005, "street_1": "WHITE PLAINS RD", "street_2": "E 212 ST", "x": 40.878546576799998, "y": -73.865778585200005 }, "geometry": { "type": "Point", "coordinates": [ -73.865778585200005, 40.878546576799998 ] } },
{ "type": "Feature", "properties": { "lat": 40.849453020399999, "long": -73.906000858599995, "street_1": "MONROE AV", "street_2": "E TREMONT AV", "x": 40.849453020399999, "y": -73.906000858599995 }, "geometry": { "type": "Point", "coordinates": [ -73.906000858599995, 40.849453020399999 ] } },
{ "type": "Feature", "properties": { "lat": 40.818559633500001, "long": -73.927316531900004, "street_1": "GRAND CONCOURSE", "street_2": "E 149 ST", "x": 40.818559633500001, "y": -73.927316531900004 }, "geometry": { "type": "Point", "coordinates": [ -73.927316531900004, 40.818559633500001 ] } },
{ "type": "Feature", "properties": { "lat": 40.8373699825, "long": -73.887765063399996, "street_1": "SOUTHERN BLVD", "street_2": "BOSTON RD", "x": 40.8373699825, "y": -73.887765063399996 }, "geometry": { "type": "Point", "coordinates": [ -73.887765063399996, 40.8373699825 ] } },
{ "type": "Feature", "properties": { "lat": 40.862678863600003, "long": -73.909039508800007, "street_1": "W FORDHAM RD", "street_2": "SEDGWICK AV", "x": 40.862678863600003, "y": -73.909039508800007 }, "geometry": { "type": "Point", "coordinates": [ -73.909039508800007, 40.862678863600003 ] } },
{ "type": "Feature", "properties": { "lat": 40.834201052899999, "long": -73.851684597499997, "street_1": "WESTCHESTER AV", "street_2": "CASTLE HILL AV", "x": 40.834201052899999, "y": -73.851684597499997 }, "geometry": { "type": "Point", "coordinates": [ -73.851684597499997, 40.834201052899999 ] } },
{ "type": "Feature", "properties": { "lat": 40.862749574200002, "long": -73.904933859699995, "street_1": "W FORDHAM RD", "street_2": "UNIVERSITY AV", "x": 40.862749574200002, "y": -73.904933859699995 }, "geometry": { "type": "Point", "coordinates": [ -73.904933859699995, 40.862749574200002 ] } },
{ "type": "Feature", "properties": { "lat": 40.8523559988, "long": -73.903663774099996, "street_1": "GRAND CONCOURSE", "street_2": "E BURNSIDE AV", "x": 40.8523559988, "y": -73.903663774099996 }, "geometry": { "type": "Point", "coordinates": [ -73.903663774099996, 40.8523559988 ] } },
{ "type": "Feature", "properties": { "lat": 40.861351136899998, "long": -73.897738153700004, "street_1": "GRAND CONCOURSE", "street_2": "E 188 ST", "x": 40.861351136899998, "y": -73.897738153700004 }, "geometry": { "type": "Point", "coordinates": [ -73.897738153700004, 40.861351136899998 ] } },
{ "type": "Feature", "properties": { "lat": 40.862735282000003, "long": -73.903318453699995, "street_1": "W FORDHAM RD", "street_2": "GRAND AV", "x": 40.862735282000003, "y": -73.903318453699995 }, "geometry": { "type": "Point", "coordinates": [ -73.903318453699995, 40.862735282 ] } },
{ "type": "Feature", "properties": { "lat": 40.813267423200003, "long": -73.922872541000004, "street_1": "E 143 ST", "street_2": "3 AV", "x": 40.813267423200003, "y": -73.922872541000004 }, "geometry": { "type": "Point", "coordinates": [ -73.922872541, 40.813267423200003 ] } },
{ "type": "Feature", "properties": { "lat": 40.804345175900004, "long": -73.921571358899996, "street_1": "BRUCKNER BLVD", "street_2": "BROOK AV", "x": 40.804345175900004, "y": -73.921571358899996 }, "geometry": { "type": "Point", "coordinates": [ -73.921571358899996, 40.804345175900004 ] } },
{ "type": "Feature", "properties": { "lat": 40.815754565, "long": -73.895276907400017, "street_1": "LONGWOOD AV", "street_2": "BRUCKNER BLVD", "x": 40.815754565, "y": -73.895276907400017 }, "geometry": { "type": "Point", "coordinates": [ -73.895276907400017, 40.815754565 ] } },
{ "type": "Feature", "properties": { "lat": 40.834917590800003, "long": -73.894123620900004, "street_1": "WILKINS AV", "street_2": "BOSTON RD", "x": 40.834917590800003, "y": -73.894123620900004 }, "geometry": { "type": "Point", "coordinates": [ -73.894123620900004, 40.834917590800003 ] } },
{ "type": "Feature", "properties": { "lat": 40.820112978200001, "long": -73.908186332400007, "street_1": "E 158 ST", "street_2": "CAULDWELL AV", "x": 40.820112978200001, "y": -73.908186332400007 }, "geometry": { "type": "Point", "coordinates": [ -73.908186332400007, 40.820112978200001 ] } },
{ "type": "Feature", "properties": { "lat": 40.806822095199998, "long": -73.917479896000003, "street_1": "ST ANNS AV", "street_2": "E 138 ST", "x": 40.806822095199998, "y": -73.917479896000003 }, "geometry": { "type": "Point", "coordinates": [ -73.917479896, 40.806822095199998 ] } },
{ "type": "Feature", "properties": { "lat": 40.840225494000002, "long": -73.917683619599998, "street_1": "W 170 ST", "street_2": "JEROME AV", "x": 40.840225494000002, "y": -73.917683619599998 }, "geometry": { "type": "Point", "coordinates": [ -73.917683619599998, 40.840225494 ] } },
{ "type": "Feature", "properties": { "lat": 40.8984496546, "long": -73.854298827600005, "street_1": "WHITE PLAINS RD", "street_2": "NEREID AV", "x": 40.8984496546, "y": -73.854298827600005 }, "geometry": { "type": "Point", "coordinates": [ -73.854298827600005, 40.8984496546 ] } },
{ "type": "Feature", "properties": { "lat": 40.816555108199999, "long": -73.919544952500004, "street_1": "E 149 ST", "street_2": "COURTLANDT AV", "x": 40.816555108199999, "y": -73.919544952500004 }, "geometry": { "type": "Point", "coordinates": [ -73.919544952500004, 40.816555108199999 ] } },
{ "type": "Feature", "properties": { "lat": 40.845985727299997, "long": -73.884465322599993, "street_1": "SOUTHERN BLVD", "street_2": "E 180 ST", "x": 40.845985727299997, "y": -73.884465322599993 }, "geometry": { "type": "Point", "coordinates": [ -73.884465322599993, 40.845985727299997 ] } },
{ "type": "Feature", "properties": { "lat": 40.670582804399999, "long": -73.930951130899999, "street_1": "UTICA AV", "street_2": "ST JOHN'S PL", "x": 40.670582804399999, "y": -73.930951130899999 }, "geometry": { "type": "Point", "coordinates": [ -73.930951130899999, 40.670582804399999 ] } },
{ "type": "Feature", "properties": { "lat": 40.668798543199998, "long": -73.931119378800005, "street_1": "UTICA AV", "street_2": "EASTERN PKWY", "x": 40.668798543199998, "y": -73.931119378800005 }, "geometry": { "type": "Point", "coordinates": [ -73.931119378800005, 40.668798543199998 ] } },
{ "type": "Feature", "properties": { "lat": 40.651734054199999, "long": -73.930381444399998, "street_1": "UTICA AV", "street_2": "CHURCH AV", "x": 40.651734054199999, "y": -73.930381444399998 }, "geometry": { "type": "Point", "coordinates": [ -73.930381444399998, 40.651734054199999 ] } },
{ "type": "Feature", "properties": { "lat": 40.580378470600003, "long": -73.967598679000005, "street_1": "OCEAN PKWY", "street_2": "NEPTUNE AV", "x": 40.580378470600003, "y": -73.967598679000005 }, "geometry": { "type": "Point", "coordinates": [ -73.967598679, 40.580378470600003 ] } },
{ "type": "Feature", "properties": { "lat": 40.632090415100002, "long": -73.918606496600006, "street_1": "RALPH AV", "street_2": "FLATLANDS AV", "x": 40.632090415100002, "y": -73.918606496600006 }, "geometry": { "type": "Point", "coordinates": [ -73.918606496600006, 40.632090415100002 ] } },
{ "type": "Feature", "properties": { "lat": 40.605674184900003, "long": -73.9669624876, "street_1": "OCEAN PKWY", "street_2": "KINGS HWY", "x": 40.605674184900003, "y": -73.9669624876 }, "geometry": { "type": "Point", "coordinates": [ -73.9669624876, 40.605674184900003 ] } },
{ "type": "Feature", "properties": { "lat": 40.587306286099995, "long": -73.960349535899994, "street_1": "CONEY ISLAND AV", "street_2": "AV Z", "x": 40.587306286099995, "y": -73.960349535899994 }, "geometry": { "type": "Point", "coordinates": [ -73.960349535899994, 40.587306286099995 ] } },
{ "type": "Feature", "properties": { "lat": 40.678008230800003, "long": -73.941376637600001, "street_1": "KINGSTON AV", "street_2": "ATLANTIC AV", "x": 40.678008230800003, "y": -73.941376637600001 }, "geometry": { "type": "Point", "coordinates": [ -73.941376637600001, 40.678008230800003 ] } },
{ "type": "Feature", "properties": { "lat": 40.619605611200001, "long": -73.945516635600001, "street_1": "NOSTRAND AV", "street_2": "AV M", "x": 40.619605611200001, "y": -73.945516635600001 }, "geometry": { "type": "Point", "coordinates": [ -73.945516635600001, 40.619605611200001 ] } },
{ "type": "Feature", "properties": { "lat": 40.668647194800002, "long": -73.928349672099998, "street_1": "ROCHESTER AV", "street_2": "EASTERN PKWY", "x": 40.668647194800002, "y": -73.928349672099998 }, "geometry": { "type": "Point", "coordinates": [ -73.928349672099998, 40.668647194800002 ] } },
{ "type": "Feature", "properties": { "lat": 40.578937142800001, "long": -73.9852106389, "street_1": "W 17 ST", "street_2": "NEPTUNE AV", "x": 40.578937142800001, "y": -73.9852106389 }, "geometry": { "type": "Point", "coordinates": [ -73.9852106389, 40.578937142800001 ] } },
{ "type": "Feature", "properties": { "lat": 40.700725233500002, "long": -73.941930788299999, "street_1": "GRAHAM AV", "street_2": "BROADWAY", "x": 40.700725233500002, "y": -73.941930788299999 }, "geometry": { "type": "Point", "coordinates": [ -73.941930788299999, 40.700725233500002 ] } },
{ "type": "Feature", "properties": { "lat": 40.609809080200002, "long": -73.922497508600003, "street_1": "FLATBUSH AV", "street_2": "AV U", "x": 40.609809080200002, "y": -73.922497508600003 }, "geometry": { "type": "Point", "coordinates": [ -73.922497508600003, 40.609809080200002 ] } },
{ "type": "Feature", "properties": { "lat": 40.676938357799997, "long": -73.921823610100006, "street_1": "RALPH AV", "street_2": "ATLANTIC AV", "x": 40.676938357799997, "y": -73.921823610100006 }, "geometry": { "type": "Point", "coordinates": [ -73.921823610100006, 40.676938357799997 ] } },
{ "type": "Feature", "properties": { "lat": 40.577993323199998, "long": -73.959632990800003, "street_1": "CONEY ISLAND AV", "street_2": "BRIGHTON BEACH AV", "x": 40.577993323199998, "y": -73.959632990800003 }, "geometry": { "type": "Point", "coordinates": [ -73.959632990800003, 40.577993323199998 ] } },
{ "type": "Feature", "properties": { "lat": 40.679203150200003, "long": -73.9552936157, "street_1": "FRANKLIN AV", "street_2": "ATLANTIC AV", "x": 40.679203150200003, "y": -73.9552936157 }, "geometry": { "type": "Point", "coordinates": [ -73.9552936157, 40.679203150200003 ] } },
{ "type": "Feature", "properties": { "lat": 40.6698683308, "long": -73.950500464499996, "street_1": "NOSTRAND AV", "street_2": "EASTERN PKWY", "x": 40.6698683308, "y": -73.950500464499996 }, "geometry": { "type": "Point", "coordinates": [ -73.950500464499996, 40.6698683308 ] } },
{ "type": "Feature", "properties": { "lat": 40.588513895399998, "long": -73.949345517699996, "street_1": "OCEAN AV", "street_2": "AV Z", "x": 40.588513895399998, "y": -73.949345517699996 }, "geometry": { "type": "Point", "coordinates": [ -73.949345517699996, 40.588513895399998 ] } },
{ "type": "Feature", "properties": { "lat": 40.667015316899992, "long": -73.931290549500005, "street_1": "UTICA AV", "street_2": "PRESIDENT ST", "x": 40.667015316899992, "y": -73.931290549500005 }, "geometry": { "type": "Point", "coordinates": [ -73.931290549500005, 40.667015316899992 ] } },
{ "type": "Feature", "properties": { "lat": 40.689930943699999, "long": -73.981475681399999, "street_1": "FLATBUSH AV EX", "street_2": "DE KALB AV", "x": 40.689930943699999, "y": -73.981475681399999 }, "geometry": { "type": "Point", "coordinates": [ -73.981475681399999, 40.689930943699999 ] } },
{ "type": "Feature", "properties": { "lat": 40.636134152899999, "long": -73.972734574000015, "street_1": "OCEAN PKWY", "street_2": "DITMAS AV", "x": 40.636134152899999, "y": -73.972734574000015 }, "geometry": { "type": "Point", "coordinates": [ -73.972734574000015, 40.636134152899999 ] } },
{ "type": "Feature", "properties": { "lat": 40.654314172900001, "long": -73.917575885800005, "street_1": "LINDEN BLVD", "street_2": "CHURCH AV", "x": 40.654314172900001, "y": -73.917575885800005 }, "geometry": { "type": "Point", "coordinates": [ -73.917575885800005, 40.654314172900001 ] } },
{ "type": "Feature", "properties": { "lat": 40.607843112600001, "long": -73.961965525400004, "street_1": "QUENTIN RD", "street_2": "CONEY ISLAND AV", "x": 40.607843112600001, "y": -73.961965525400004 }, "geometry": { "type": "Point", "coordinates": [ -73.961965525400004, 40.607843112600001 ] } },
{ "type": "Feature", "properties": { "lat": 40.598937303, "long": -73.955476240699994, "street_1": "E 16 ST", "street_2": "AV U", "x": 40.598937303, "y": -73.955476240699994 }, "geometry": { "type": "Point", "coordinates": [ -73.955476240699994, 40.598937303 ] } },
{ "type": "Feature", "properties": { "lat": 40.5895655928, "long": -73.939796037700006, "street_1": "NOSTRAND AV", "street_2": "AV Z", "x": 40.5895655928, "y": -73.939796037700006 }, "geometry": { "type": "Point", "coordinates": [ -73.939796037700006, 40.5895655928 ] } },
{ "type": "Feature", "properties": { "lat": 40.6703569059, "long": -73.988713225699996, "street_1": "9 ST", "street_2": "4 AV", "x": 40.6703569059, "y": -73.988713225699996 }, "geometry": { "type": "Point", "coordinates": [ -73.988713225699996, 40.6703569059 ] } },
{ "type": "Feature", "properties": { "lat": 40.693341711199999, "long": -73.966880418800002, "street_1": "WASHINGTON AV", "street_2": "MYRTLE AV", "x": 40.693341711199999, "y": -73.966880418800002 }, "geometry": { "type": "Point", "coordinates": [ -73.966880418800002, 40.693341711199999 ] } },
{ "type": "Feature", "properties": { "lat": 40.624765483499999, "long": -73.965172589700003, "street_1": "CONEY ISLAND AV", "street_2": "AV J", "x": 40.624765483499999, "y": -73.965172589700003 }, "geometry": { "type": "Point", "coordinates": [ -73.965172589700003, 40.624765483499999 ] } },
{ "type": "Feature", "properties": { "lat": 40.670007204999997, "long": -73.953270197699993, "street_1": "ROGERS AV", "street_2": "EASTERN PKWY", "x": 40.670007204999997, "y": -73.953270197699993 }, "geometry": { "type": "Point", "coordinates": [ -73.953270197699993, 40.670007205 ] } },
{ "type": "Feature", "properties": { "lat": 40.669724508999998, "long": -73.8609639891, "street_1": "LINDEN BLVD", "street_2": "DREW ST", "x": 40.669724508999998, "y": -73.8609639891 }, "geometry": { "type": "Point", "coordinates": [ -73.8609639891, 40.669724509 ] } },
{ "type": "Feature", "properties": { "lat": 40.640374304799998, "long": -73.897011070700003, "street_1": "ROCKAWAY PKWY", "street_2": "AV K", "x": 40.640374304799998, "y": -73.897011070700003 }, "geometry": { "type": "Point", "coordinates": [ -73.897011070700003, 40.640374304799998 ] } },
{ "type": "Feature", "properties": { "lat": 40.647123528800002, "long": -74.015160269199995, "street_1": "51 ST", "street_2": "3 AV", "x": 40.647123528800002, "y": -74.015160269199995 }, "geometry": { "type": "Point", "coordinates": [ -74.015160269199995, 40.647123528800002 ] } },
{ "type": "Feature", "properties": { "lat": 40.670657274200003, "long": -73.957973172099997, "street_1": "FRANKLIN AV", "street_2": "EASTERN PKWY", "x": 40.670657274200003, "y": -73.957973172099997 }, "geometry": { "type": "Point", "coordinates": [ -73.957973172099997, 40.670657274200003 ] } },
{ "type": "Feature", "properties": { "lat": 40.679785850899997, "long": -73.938436134200003, "street_1": "FULTON ST", "street_2": "ALBANY AV", "x": 40.679785850899997, "y": -73.938436134200003 }, "geometry": { "type": "Point", "coordinates": [ -73.938436134200003, 40.679785850899997 ] } },
{ "type": "Feature", "properties": { "lat": 40.688902477100001, "long": -73.980928228899998, "street_1": "FULTON ST", "street_2": "FLATBUSH AV EX", "x": 40.688902477100001, "y": -73.980928228899998 }, "geometry": { "type": "Point", "coordinates": [ -73.980928228899998, 40.688902477100001 ] } },
{ "type": "Feature", "properties": { "lat": 40.686682, "long": -73.979362976399997, "street_1": "LAFAYETTE AV", "street_2": "FLATBUSH AV", "x": 40.686682, "y": -73.979362976399997 }, "geometry": { "type": "Point", "coordinates": [ -73.979362976399997, 40.686682 ] } },
{ "type": "Feature", "properties": { "lat": 40.650807899900002, "long": -73.949571130500004, "street_1": "NOSTRAND AV", "street_2": "CHURCH AV", "x": 40.650807899900002, "y": -73.949571130500004 }, "geometry": { "type": "Point", "coordinates": [ -73.949571130500004, 40.650807899900002 ] } },
{ "type": "Feature", "properties": { "lat": 40.683474698300003, "long": -73.975952996900006, "street_1": "FT GREENE PL", "street_2": "ATLANTIC AV", "x": 40.683474698300003, "y": -73.975952996900006 }, "geometry": { "type": "Point", "coordinates": [ -73.975952996900006, 40.683474698300003 ] } },
{ "type": "Feature", "properties": { "lat": 40.636266951700001, "long": -73.948014659899997, "street_1": "NOSTRAND AV", "street_2": "FARRAGUT RD", "x": 40.636266951700001, "y": -73.948014659899997 }, "geometry": { "type": "Point", "coordinates": [ -73.948014659899997, 40.636266951700001 ] } },
{ "type": "Feature", "properties": { "lat": 40.672858384900003, "long": -73.871302580399998, "street_1": "SUTTER AV", "street_2": "EUCLID AV", "x": 40.672858384900003, "y": -73.871302580399998 }, "geometry": { "type": "Point", "coordinates": [ -73.871302580399998, 40.672858384900003 ] } },
{ "type": "Feature", "properties": { "lat": 40.663517396800003, "long": -73.957209354900002, "street_1": "EMPIRE BLVD", "street_2": "BEDFORD AV", "x": 40.663517396800003, "y": -73.957209354900002 }, "geometry": { "type": "Point", "coordinates": [ -73.957209354900002, 40.663517396800003 ] } },
{ "type": "Feature", "properties": { "lat": 40.678721995399997, "long": -73.952986727099997, "street_1": "BEDFORD AV", "street_2": "ATLANTIC AV", "x": 40.678721995399997, "y": -73.952986727099997 }, "geometry": { "type": "Point", "coordinates": [ -73.952986727099997, 40.678721995399997 ] } },
{ "type": "Feature", "properties": { "lat": 40.576981820599997, "long": -73.9815636748, "street_1": "STILLWELL AV", "street_2": "MERMAID AV", "x": 40.576981820599997, "y": -73.9815636748 }, "geometry": { "type": "Point", "coordinates": [ -73.9815636748, 40.576981820599997 ] } },
{ "type": "Feature", "properties": { "lat": 40.641125992500001, "long": -73.945624752599997, "street_1": "NEW YORK AV", "street_2": "AV D", "x": 40.641125992500001, "y": -73.945624752599997 }, "geometry": { "type": "Point", "coordinates": [ -73.945624752599997, 40.641125992500001 ] } },
{ "type": "Feature", "properties": { "lat": 40.638607189200002, "long": -73.948264996600003, "street_1": "NOSTRAND AV", "street_2": "FOSTER AV", "x": 40.638607189200002, "y": -73.948264996600003 }, "geometry": { "type": "Point", "coordinates": [ -73.948264996600003, 40.638607189200002 ] } },
{ "type": "Feature", "properties": { "lat": 40.680390402999997, "long": -73.949556886699995, "street_1": "NOSTRAND AV", "street_2": "FULTON ST", "x": 40.680390402999997, "y": -73.949556886699995 }, "geometry": { "type": "Point", "coordinates": [ -73.949556886699995, 40.680390403 ] } },
{ "type": "Feature", "properties": { "lat": 40.633111621300003, "long": -73.972161458900004, "street_1": "OCEAN PKWY", "street_2": "18 AV", "x": 40.633111621300003, "y": -73.972161458900004 }, "geometry": { "type": "Point", "coordinates": [ -73.972161458900004, 40.633111621300003 ] } },
{ "type": "Feature", "properties": { "lat": 40.576291188699997, "long": -73.968535312300006, "street_1": "W BRIGHTON AV", "street_2": "OCEAN PKWY", "x": 40.576291188699997, "y": -73.968535312300006 }, "geometry": { "type": "Point", "coordinates": [ -73.968535312300006, 40.576291188699997 ] } },
{ "type": "Feature", "properties": { "lat": 40.656980284500001, "long": -73.8894165775, "street_1": "STANLEY AV", "street_2": "PENNSYLVANIA AV", "x": 40.656980284500001, "y": -73.8894165775 }, "geometry": { "type": "Point", "coordinates": [ -73.8894165775, 40.656980284500001 ] } },
{ "type": "Feature", "properties": { "lat": 40.686929284999998, "long": -73.984829307400005, "street_1": "BOND ST", "street_2": "ATLANTIC AV", "x": 40.686929284999998, "y": -73.984829307400005 }, "geometry": { "type": "Point", "coordinates": [ -73.984829307400005, 40.686929285 ] } },
{ "type": "Feature", "properties": { "lat": 40.607336300500002, "long": -73.961885679700003, "street_1": "KINGS HWY", "street_2": "CONEY ISLAND AV", "x": 40.607336300500002, "y": -73.961885679700003 }, "geometry": { "type": "Point", "coordinates": [ -73.961885679700003, 40.607336300500002 ] } },
{ "type": "Feature", "properties": { "lat": 40.640238249399999, "long": -73.905972213300004, "street_1": "REMSEN AV", "street_2": "FLATLANDS AV", "x": 40.640238249399999, "y": -73.905972213300004 }, "geometry": { "type": "Point", "coordinates": [ -73.905972213300004, 40.640238249399999 ] } },
{ "type": "Feature", "properties": { "lat": 40.655335609300003, "long": -73.9307671177, "street_1": "UTICA AV", "street_2": "LENOX RD", "x": 40.655335609300003, "y": -73.9307671177 }, "geometry": { "type": "Point", "coordinates": [ -73.9307671177, 40.655335609300003 ] } },
{ "type": "Feature", "properties": { "lat": 40.644913064699999, "long": -73.974423693000006, "street_1": "PROSPECT EXWY", "street_2": "CHURCH AV", "x": 40.644913064699999, "y": -73.974423693000006 }, "geometry": { "type": "Point", "coordinates": [ -73.974423693, 40.644913064699999 ] } },
{ "type": "Feature", "properties": { "lat": 40.696035340500003, "long": -73.984529957999996, "street_1": "TILLARY ST", "street_2": "FLATBUSH AV EX", "x": 40.696035340500003, "y": -73.984529957999996 }, "geometry": { "type": "Point", "coordinates": [ -73.984529958, 40.696035340500003 ] } },
{ "type": "Feature", "properties": { "lat": 40.629988015599999, "long": -73.9715680284, "street_1": "OCEAN PKWY", "street_2": "FOSTER AV", "x": 40.629988015599999, "y": -73.9715680284 }, "geometry": { "type": "Point", "coordinates": [ -73.9715680284, 40.629988015599999 ] } },
{ "type": "Feature", "properties": { "lat": 40.6683760019, "long": -73.920114643100007, "street_1": "PITKIN AV", "street_2": "HOWARD AV", "x": 40.6683760019, "y": -73.920114643100007 }, "geometry": { "type": "Point", "coordinates": [ -73.920114643100007, 40.6683760019 ] } },
{ "type": "Feature", "properties": { "lat": 40.693661357800003, "long": -73.852164958000003, "street_1": "WOODHAVEN BLVD", "street_2": "JAMAICA AV", "x": 40.693661357800003, "y": -73.852164958000003 }, "geometry": { "type": "Point", "coordinates": [ -73.852164958, 40.693661357800003 ] } },
{ "type": "Feature", "properties": { "lat": 40.733497433799997, "long": -73.870368524499995, "street_1": "WOODHAVEN BLVD", "street_2": "QUEENS BLVD", "x": 40.733497433799997, "y": -73.870368524499995 }, "geometry": { "type": "Point", "coordinates": [ -73.870368524499995, 40.733497433799997 ] } },
{ "type": "Feature", "properties": { "lat": 40.763941059700002, "long": -73.828147437400006, "street_1": "UNION ST", "street_2": "NORTHERN BLVD", "x": 40.763941059700002, "y": -73.828147437400006 }, "geometry": { "type": "Point", "coordinates": [ -73.828147437400006, 40.763941059700002 ] } },
{ "type": "Feature", "properties": { "lat": 40.7007980578, "long": -73.894574489899995, "street_1": "MYRTLE AV", "street_2": "FRESH POND RD", "x": 40.7007980578, "y": -73.894574489899995 }, "geometry": { "type": "Point", "coordinates": [ -73.894574489899995, 40.7007980578 ] } },
{ "type": "Feature", "properties": { "lat": 40.750969023800003, "long": -73.8257655723, "street_1": "MAIN ST", "street_2": "ELDER AV", "x": 40.750969023800003, "y": -73.8257655723 }, "geometry": { "type": "Point", "coordinates": [ -73.8257655723, 40.750969023800003 ] } },
{ "type": "Feature", "properties": { "lat": 40.734282756200002, "long": -73.864621932099993, "street_1": "JUNCTION BLVD", "street_2": "HOR HARDING EXWY SR N", "x": 40.734282756200002, "y": -73.864621932099993 }, "geometry": { "type": "Point", "coordinates": [ -73.864621932099993, 40.734282756200002 ] } },
{ "type": "Feature", "properties": { "lat": 40.709531579599997, "long": -73.796394180600004, "street_1": "MERRICK BLVD", "street_2": "HILLSIDE AV", "x": 40.709531579599997, "y": -73.796394180600004 }, "geometry": { "type": "Point", "coordinates": [ -73.796394180600004, 40.709531579599997 ] } },
{ "type": "Feature", "properties": { "lat": 40.760993831100002, "long": -73.824422072299996, "street_1": "ROOSEVELT AV", "street_2": "BOWNE ST", "x": 40.760993831100002, "y": -73.824422072299996 }, "geometry": { "type": "Point", "coordinates": [ -73.824422072299996, 40.760993831100002 ] } },
{ "type": "Feature", "properties": { "lat": 40.7611300214, "long": -73.812267781599999, "street_1": "SANFORD AV", "street_2": "MURRAY ST", "x": 40.7611300214, "y": -73.812267781599999 }, "geometry": { "type": "Point", "coordinates": [ -73.812267781599999, 40.7611300214 ] } },
{ "type": "Feature", "properties": { "lat": 40.595140088400001, "long": -73.753986026700005, "street_1": "SEAGIRT BLVD", "street_2": "BEACH 20 ST", "x": 40.595140088400001, "y": -73.753986026700005 }, "geometry": { "type": "Point", "coordinates": [ -73.753986026700005, 40.595140088400001 ] } },
{ "type": "Feature", "properties": { "lat": 40.757535521100003, "long": -73.866569975600001, "street_1": "NORTHERN BLVD", "street_2": "102 ST", "x": 40.757535521100003, "y": -73.866569975600001 }, "geometry": { "type": "Point", "coordinates": [ -73.866569975600001, 40.757535521100003 ] } },
{ "type": "Feature", "properties": { "lat": 40.694544497300001, "long": -73.802112526399995, "street_1": "SUTPHIN BLVD", "street_2": "SOUTH RD", "x": 40.694544497300001, "y": -73.802112526399995 }, "geometry": { "type": "Point", "coordinates": [ -73.802112526399995, 40.694544497300001 ] } },
{ "type": "Feature", "properties": { "lat": 40.759893755999997, "long": -73.823933389299995, "street_1": "BOWNE ST", "street_2": "41 AV", "x": 40.759893755999997, "y": -73.823933389299995 }, "geometry": { "type": "Point", "coordinates": [ -73.823933389299995, 40.759893756 ] } },
{ "type": "Feature", "properties": { "lat": 40.761600348000002, "long": -73.924588285400006, "street_1": "BROADWAY", "street_2": "32 ST", "x": 40.761600348000002, "y": -73.924588285400006 }, "geometry": { "type": "Point", "coordinates": [ -73.924588285400006, 40.761600348 ] } },
{ "type": "Feature", "properties": { "lat": 40.689891842000002, "long": -73.796684632099996, "street_1": "SUTPHIN BLVD", "street_2": "110 AV", "x": 40.689891842000002, "y": -73.796684632099996 }, "geometry": { "type": "Point", "coordinates": [ -73.796684632099996, 40.689891842 ] } },
{ "type": "Feature", "properties": { "lat": 40.741862248099999, "long": -73.907505696399994, "street_1": "QUEENS BLVD", "street_2": "58 ST", "x": 40.741862248099999, "y": -73.907505696399994 }, "geometry": { "type": "Point", "coordinates": [ -73.907505696399994, 40.741862248099999 ] } },
{ "type": "Feature", "properties": { "lat": 40.710711075399999, "long": -73.793038000400003, "street_1": "HOMELAWN ST", "street_2": "169 ST", "x": 40.710711075399999, "y": -73.793038000400003 }, "geometry": { "type": "Point", "coordinates": [ -73.793038000400003, 40.710711075399999 ] } },
{ "type": "Feature", "properties": { "lat": 40.743331209600001, "long": -73.874584102399993, "street_1": "LAMONT AV", "street_2": "43 AV", "x": 40.743331209600001, "y": -73.874584102399993 }, "geometry": { "type": "Point", "coordinates": [ -73.874584102399993, 40.743331209600001 ] } },
{ "type": "Feature", "properties": { "lat": 40.686234055100002, "long": -73.824173283500002, "street_1": "LIBERTY AV", "street_2": "LEFFERTS BLVD", "x": 40.686234055100002, "y": -73.824173283500002 }, "geometry": { "type": "Point", "coordinates": [ -73.824173283500002, 40.686234055100002 ] } },
{ "type": "Feature", "properties": { "lat": 40.754250894400002, "long": -73.827825258100006, "street_1": "MAIN ST", "street_2": "FRANKLIN AV", "x": 40.754250894400002, "y": -73.827825258100006 }, "geometry": { "type": "Point", "coordinates": [ -73.827825258100006, 40.754250894400002 ] } },
{ "type": "Feature", "properties": { "lat": 40.736751229699998, "long": -73.8776580456, "street_1": "QUEENS BLVD", "street_2": "BROADWAY", "x": 40.736751229699998, "y": -73.8776580456 }, "geometry": { "type": "Point", "coordinates": [ -73.8776580456, 40.736751229699998 ] } },
{ "type": "Feature", "properties": { "lat": 40.740272042500003, "long": -73.895851152199995, "street_1": "QUEENS BLVD", "street_2": "69 ST", "x": 40.740272042500003, "y": -73.895851152199995 }, "geometry": { "type": "Point", "coordinates": [ -73.895851152199995, 40.740272042500003 ] } },
{ "type": "Feature", "properties": { "lat": 40.702458901999996, "long": -73.815940206600004, "street_1": "VAN WYCK EXWY SR E", "street_2": "JAMAICA AV", "x": 40.702458901999996, "y": -73.815940206600004 }, "geometry": { "type": "Point", "coordinates": [ -73.815940206600004, 40.702458902 ] } },
{ "type": "Feature", "properties": { "lat": 40.730912654800001, "long": -73.860830296100005, "street_1": "97 ST", "street_2": "63 RD", "x": 40.730912654800001, "y": -73.860830296100005 }, "geometry": { "type": "Point", "coordinates": [ -73.860830296100005, 40.730912654800001 ] } },
{ "type": "Feature", "properties": { "lat": 40.760464067400001, "long": -73.826541021799997, "street_1": "UNION ST", "street_2": "ROOSEVELT AV", "x": 40.760464067400001, "y": -73.826541021799997 }, "geometry": { "type": "Point", "coordinates": [ -73.826541021799997, 40.760464067400001 ] } },
{ "type": "Feature", "properties": { "lat": 40.7553917332, "long": -73.828280051099995, "street_1": "MAPLE AV", "street_2": "MAIN ST", "x": 40.7553917332, "y": -73.828280051099995 }, "geometry": { "type": "Point", "coordinates": [ -73.828280051099995, 40.7553917332 ] } },
{ "type": "Feature", "properties": { "lat": 40.7610924365, "long": -73.826867485099996, "street_1": "UNION ST", "street_2": "39 AV", "x": 40.7610924365, "y": -73.826867485099996 }, "geometry": { "type": "Point", "coordinates": [ -73.826867485099996, 40.7610924365 ] } },
{ "type": "Feature", "properties": { "lat": 40.761969692400001, "long": -73.925380152299994, "street_1": "BROADWAY", "street_2": "31 ST", "x": 40.761969692400001, "y": -73.925380152299994 }, "geometry": { "type": "Point", "coordinates": [ -73.925380152299994, 40.761969692400001 ] } },
{ "type": "Feature", "properties": { "lat": 40.6916505688, "long": -73.779198386399997, "street_1": "MERRICK BLVD", "street_2": "LINDEN BLVD", "x": 40.6916505688, "y": -73.779198386399997 }, "geometry": { "type": "Point", "coordinates": [ -73.779198386399997, 40.6916505688 ] } },
{ "type": "Feature", "properties": { "lat": 40.764990814299999, "long": -73.820666676900004, "street_1": "NORTHERN BLVD", "street_2": "146 ST", "x": 40.764990814299999, "y": -73.820666676900004 }, "geometry": { "type": "Point", "coordinates": [ -73.820666676900004, 40.764990814299999 ] } },
{ "type": "Feature", "properties": { "lat": 40.704423861000002, "long": -73.79284849, "street_1": "MERRICK BLVD", "street_2": "ARCHER AV", "x": 40.704423861000002, "y": -73.79284849 }, "geometry": { "type": "Point", "coordinates": [ -73.79284849, 40.704423861 ] } },
{ "type": "Feature", "properties": { "lat": 40.702473546500002, "long": -73.799919818999996, "street_1": "PARSONS BLVD", "street_2": "ARCHER AV", "x": 40.702473546500002, "y": -73.799919818999996 }, "geometry": { "type": "Point", "coordinates": [ -73.799919819, 40.702473546500002 ] } },
{ "type": "Feature", "properties": { "lat": 40.752541965900001, "long": -73.852604326100007, "street_1": "ROOSEVELT AV", "street_2": "114 ST", "x": 40.752541965900001, "y": -73.852604326100007 }, "geometry": { "type": "Point", "coordinates": [ -73.852604326100007, 40.752541965900001 ] } },
{ "type": "Feature", "properties": { "lat": 40.680295377299998, "long": -73.8446399117, "street_1": "LIBERTY AV", "street_2": "CROSS BAY BLVD", "x": 40.680295377299998, "y": -73.8446399117 }, "geometry": { "type": "Point", "coordinates": [ -73.8446399117, 40.680295377299998 ] } },
{ "type": "Feature", "properties": { "lat": 40.744028664399998, "long": -73.9261522165, "street_1": "QUEENS BLVD", "street_2": "39 ST", "x": 40.744028664399998, "y": -73.9261522165 }, "geometry": { "type": "Point", "coordinates": [ -73.9261522165, 40.744028664399998 ] } },
{ "type": "Feature", "properties": { "lat": 40.757648646299998, "long": -73.825184625299997, "street_1": "UNION ST", "street_2": "SANFORD AV", "x": 40.757648646299998, "y": -73.825184625299997 }, "geometry": { "type": "Point", "coordinates": [ -73.825184625299997, 40.757648646299998 ] } },
{ "type": "Feature", "properties": { "lat": 40.705746255599998, "long": -73.809689854499993, "street_1": "SUTPHIN BLVD", "street_2": "HILLSIDE AV", "x": 40.705746255599998, "y": -73.809689854499993 }, "geometry": { "type": "Point", "coordinates": [ -73.809689854499993, 40.705746255599998 ] } },
{ "type": "Feature", "properties": { "lat": 40.758091216099999, "long": -73.795804376600003, "street_1": "NORTHERN BLVD", "street_2": "171 ST", "x": 40.758091216099999, "y": -73.795804376600003 }, "geometry": { "type": "Point", "coordinates": [ -73.795804376600003, 40.758091216099999 ] } },
{ "type": "Feature", "properties": { "lat": 40.577944244999998, "long": -74.102316072899995, "street_1": "MIDLAND AV", "street_2": "HYLAN BLVD", "x": 40.577944244999998, "y": -74.102316072899995 }, "geometry": { "type": "Point", "coordinates": [ -74.102316072899995, 40.577944245 ] } },
{ "type": "Feature", "properties": { "lat": 40.608436192399999, "long": -74.155436399699994, "street_1": "VICTORY BLVD", "street_2": "CHRISTOPHER LA", "x": 40.608436192399999, "y": -74.155436399699994 }, "geometry": { "type": "Point", "coordinates": [ -74.155436399699994, 40.608436192399999 ] } },
{ "type": "Feature", "properties": { "lat": 40.598565528599998, "long": -74.081701840099996, "street_1": "WOODLAWN AV", "street_2": "HYLAN BLVD", "x": 40.598565528599998, "y": -74.081701840099996 }, "geometry": { "type": "Point", "coordinates": [ -74.081701840099996, 40.598565528599998 ] } },
{ "type": "Feature", "properties": { "lat": 40.586571341800003, "long": -74.092051354199995, "street_1": "SEAVIEW AV", "street_2": "HYLAN BLVD", "x": 40.586571341800003, "y": -74.092051354199995 }, "geometry": { "type": "Point", "coordinates": [ -74.092051354199995, 40.586571341800003 ] } },
{ "type": "Feature", "properties": { "lat": 40.6151203294, "long": -74.084725092, "street_1": "VANDERBILT AV", "street_2": "TARGEE ST", "x": 40.6151203294, "y": -74.084725092 }, "geometry": { "type": "Point", "coordinates": [ -74.084725092, 40.6151203294 ] } },
{ "type": "Feature", "properties": { "lat": 40.628941196900001, "long": -74.116189488200007, "street_1": "FOREST AV", "street_2": "BROADWAY", "x": 40.628941196900001, "y": -74.116189488200007 }, "geometry": { "type": "Point", "coordinates": [ -74.116189488200007, 40.628941196900001 ] } },
{ "type": "Feature", "properties": { "lat": 40.576503922199997, "long": -74.103688974999997, "street_1": "LINCOLN AV", "street_2": "HYLAN BLVD", "x": 40.576503922199997, "y": -74.103688974999997 }, "geometry": { "type": "Point", "coordinates": [ -74.103688975, 40.576503922199997 ] } }
]
}
